id,DEPARTAMENTO,PROVINCIA,MUNICIPIO,CODIGO,Captura.ca,Riqueza.es,Abu.rrhh,Ap.suelo,Minero,Piscicol,Turismo,Agro.inten,Agro.exten,Agrosilvo,Ap.fores,Uso.limit,R.actv.prd,Acc.agua,Acc.salud,Acc.edu,Acc.vivien,Acc.EE,Clasificac,porc_i.CSV,longitude,latitude
1,Chuquisaca,Oropeza,Sucre,10101,6,45,8,56,5,0,27,2,2,8,3,0,12,42,34,37,28,46,Muy Bajo,26,-65.260,-19.047
2,Chuquisaca,Oropeza,Yotala,10102,4,33,6,47,11,0,26,15,1,32,3,0,13,42,28,36,27,46,Muy Bajo,31,-65.264,-19.162
3,Chuquisaca,Oropeza,Poroma,10103,10,55,10,56,16,45,26,1,5,0,4,0,12,43,36,39,30,49,Bajo,34,-65.425,-18.538
4,Chuquisaca,Azurduy,Azurduy,10201,28,66,15,60,16,60,25,0,0,0,8,0,14,42,38,36,24,41,Medio,39,-64.414,-20.106
5,Chuquisaca,Azurduy,Tarvita,10202,11,45,8,59,24,45,25,1,1,3,5,0,14,42,29,35,26,45,Bajo,34,-64.484,-19.926
6,Chuquisaca,Zudañez,Zudañez,10301,4,12,6,54,3,0,0,13,1,35,3,0,10,43,27,36,30,43,Muy Bajo,22,-64.699,-19.120
7,Chuquisaca,Zudañez,Presto,10302,10,55,10,56,16,45,0,2,6,4,4,0,11,41,29,35,27,43,Muy Bajo,29,-64.937,-18.930
8,Chuquisaca,Zudañez,Mojocoya,10303,9,57,7,57,9,0,0,0,0,0,1,0,11,41,31,34,25,39,Muy Bajo,19,-64.618,-18.763
9,Chuquisaca,Zudañez,Icla,10304,7,59,12,54,20,45,25,0,0,50,4,0,11,44,33,37,28,44,Medio,43,-64.793,-19.363
10,Chuquisaca,Tomina,Padilla,10401,20,56,11,53,17,60,25,35,5,29,11,0,10,44,28,35,26,42,Alto,49,-64.302,-19.307
11,Chuquisaca,Tomina,Tomina,10402,5,43,8,55,5,44,0,0,0,0,9,0,9,41,31,36,26,45,Muy Bajo,24,-64.461,-19.185
12,Chuquisaca,Tomina,Sopachuy,10403,6,45,8,56,14,0,0,2,0,0,5,0,11,42,26,37,36,45,Muy Bajo,19,-64.475,-19.487
13,Chuquisaca,Tomina,Villa Alcalá,10404,5,40,7,54,12,0,0,7,1,4,5,0,12,44,20,36,31,47,Muy Bajo,20,-64.389,-19.366
14,Chuquisaca,Tomina,El Villar,10405,26,60,12,56,22,44,24,0,0,0,9,0,12,42,16,33,29,44,Bajo,35,-64.310,-19.629
15,Chuquisaca,Hernando Siles,Monteagudo,10501,19,57,11,59,18,67,24,37,2,33,11,0,11,40,25,33,25,44,Muy Alto,52,-63.955,-19.800
16,Chuquisaca,Hernando Siles,Huacareta,10502,24,59,12,56,20,67,24,0,0,1,11,0,9,40,33,37,25,48,Medio,39,-64.003,-20.367
17,Chuquisaca,Yamparaez,Tarabuco,10601,4,45,8,57,24,0,23,14,8,43,1,0,12,43,35,39,34,45,Medio,37,-64.915,-19.181
18,Chuquisaca,Yamparaez,Yamparáez,10602,5,33,6,56,3,0,23,41,3,50,5,0,13,46,36,39,28,45,Medio,39,-65.118,-19.189
19,Chuquisaca,Nor Cinti,Camargo,10701,6,65,12,58,22,44,23,1,1,100,5,0,14,43,26,38,34,47,Muy Alto,53,-65.210,-20.641
20,Chuquisaca,Nor Cinti,San Lucas,10702,9,51,14,57,25,44,23,18,11,98,4,0,11,43,36,38,29,43,Muy Alto,57,-65.134,-20.102
21,Chuquisaca,Nor Cinti,Incahuasi,10703,22,59,12,56,10,60,23,47,33,1,10,0,14,44,34,36,23,44,Muy Alto,51,-64.867,-20.784
22,Chuquisaca,Nor Cinti,Villa Charcas,10704,5,40,7,64,4,44,23,1,1,16,7,0,14,42,32,35,23,45,Bajo,32,-64.886,-20.725
23,Chuquisaca,Belisario Boeto,Villa Serrano,10801,12,39,7,54,22,60,22,29,2,39,11,0,10,42,33,37,27,44,Alto,47,-64.323,-19.123
24,Chuquisaca,Sur Cinti,Camataqui,10901,6,64,8,50,26,44,22,66,8,52,7,0,13,45,31,39,32,46,Muy Alto,58,-65.231,-20.974
25,Chuquisaca,Sur Cinti,Culpina,10902,25,60,13,53,22,70,52,0,23,4,10,0,11,41,35,37,26,45,Muy Alto,50,-64.943,-20.824
26,Chuquisaca,Sur Cinti,Las Carreras,10903,5,59,11,52,19,44,52,0,0,9,8,0,10,42,31,38,33,46,Medio,41,-65.207,-21.211
27,Chuquisaca,Luis Calvo,Villa Vaca Guzmán,11001,14,39,7,59,12,60,21,5,2,24,9,0,12,42,33,36,29,42,Medio,38,-63.749,-19.893
28,Chuquisaca,Luis Calvo,Huacaya,11002,23,59,7,54,11,43,0,2,1,1,4,0,12,43,31,35,22,43,Muy Bajo,28,-63.665,-20.744
29,Chuquisaca,Luis Calvo,Macharetí,11003,20,58,7,56,10,55,0,70,16,26,4,0,11,44,35,38,28,44,Muy Alto,50,-63.361,-20.815
30,La Paz,Murillo,La Paz,20101,22,57,52,58,50,67,0,89,7,13,12,0,17,42,34,37,29,44,Muy Alto,65,-68.135,-16.494
31,La Paz,Murillo,Palca,20102,9,56,42,76,49,43,52,0,0,0,2,0,0,44,35,37,25,43,Alto,48,-67.953,-16.561
32,La Paz,Murillo,Mecapaca,20103,5,58,23,62,18,43,52,1,3,2,4,0,0,42,40,39,30,45,Medio,42,-68.028,-16.666
33,La Paz,Murillo,Achocalla,20104,5,70,42,52,29,0,21,32,1,46,2,0,0,43,36,34,29,28,Alto,46,-68.167,-16.575
34,La Paz,Murillo,El Alto,20105,5,60,55,56,45,59,21,18,22,28,2,0,9,42,36,37,25,42,Muy Alto,56,-68.173,-16.495
35,La Paz,Omasuyos,Achacachi,20201,16,70,56,58,29,54,10,38,1,50,2,0,0,43,35,40,35,45,Muy Alto,57,-68.685,-16.043
36,La Paz,Omasuyos,Ancoraimes,20202,8,69,42,57,52,30,0,0,3,0,1,0,0,42,34,36,29,38,Bajo,35,-68.907,-15.897
37,La Paz,Omasuyos,Chua Cocani,20203,4,62,34,50,14,29,0,5,24,5,3,0,0,30,35,34,29,40,Muy Bajo,32,-68.749,-16.193
38,La Paz,Omasuyos,Huarina,20204,6,59,26,54,20,29,10,44,5,26,2,0,0,42,36,39,42,36,Alto,44,-68.602,-16.191
39,La Paz,Omasuyos,Santiago de Huata,20205,5,48,17,56,6,54,0,0,0,0,2,0,0,42,29,35,32,36,Muy Bajo,26,-68.817,-16.057
40,La Paz,Omasuyos,Huatajata,20206,4,59,26,54,20,29,0,21,6,1,1,0,0,36,17,29,35,28,Muy Bajo,30,-68.697,-16.210
41,La Paz,Pacajes,Coro Coro,20301,4,61,31,56,34,43,21,24,7,16,2,0,9,44,35,38,30,43,Alto,46,-68.453,-17.178
42,La Paz,Pacajes,Caquiaviri,20302,6,64,37,56,38,43,52,0,0,4,3,0,0,43,34,37,30,43,Alto,46,-68.607,-17.023
43,La Paz,Pacajes,Calacoto,20303,6,65,52,59,38,70,70,0,1,3,4,10,8,42,36,38,29,44,Muy Alto,58,-68.636,-17.283
44,La Paz,Pacajes,Comanche,20304,4,61,32,58,34,0,0,1,32,11,3,0,11,43,35,37,26,43,Bajo,33,-68.428,-16.957
45,La Paz,Pacajes,Charaña,20305,6,63,40,61,14,43,21,0,0,0,2,11,0,43,37,39,27,50,Bajo,36,-69.446,-17.594
46,La Paz,Pacajes,Waldo Ballivian,20306,3,35,16,56,11,0,0,0,0,13,1,0,0,50,35,38,24,42,Muy Bajo,20,-68.186,-17.083
47,La Paz,Pacajes,Nazacara de Pacajes,20307,4,57,15,52,9,0,0,3,10,14,2,0,0,50,29,40,25,54,Muy Bajo,23,-68.764,-16.937
48,La Paz,Pacajes,Santiago de Callapa,20308,3,48,17,58,24,66,64,77,5,4,2,0,9,54,35,40,27,45,Muy Alto,64,-68.356,-17.480
49,La Paz,Camacho,Puerto Acosta,20401,6,54,20,56,15,54,0,1,8,1,4,0,0,45,34,39,34,44,Muy Bajo,30,-69.252,-15.533
50,La Paz,Camacho,Mocomoco,20402,10,57,33,60,18,54,0,0,0,1,1,9,0,43,34,39,33,44,Bajo,33,-68.996,-15.456
51,La Paz,Camacho,Puerto Carabuco,20403,5,54,20,56,40,29,0,0,0,0,3,0,0,41,34,38,35,43,Muy Bajo,29,-69.064,-15.758
52,La Paz,Camacho,Humanata,20404,4,59,26,55,20,54,0,2,28,2,3,0,0,41,40,37,31,35,Bajo,35,-69.127,-15.464
53,La Paz,Camacho,Escoma,20405,5,60,28,53,21,29,0,8,47,1,2,0,0,43,37,36,29,35,Bajo,35,-69.129,-15.647
54,La Paz,Muñecas,Chuma,20501,17,62,39,57,36,0,0,2,5,5,1,0,0,43,33,37,29,44,Muy Bajo,29,-68.899,-15.480
55,La Paz,Muñecas,Ayata,20502,28,66,43,69,41,28,0,8,1,56,2,0,16,41,32,36,25,44,Alto,48,-68.835,-15.459
56,La Paz,Muñecas,Aucapata,20503,30,66,30,59,51,28,0,5,0,71,4,0,16,42,34,37,30,43,Alto,50,-68.719,-15.479
57,La Paz,Larecaja,Sorata,20601,15,45,38,59,47,28,0,16,4,1,12,0,17,40,35,38,28,48,Medio,38,-68.649,-15.773
58,La Paz,Larecaja,Guanay,20602,26,59,54,72,52,54,10,0,0,0,9,0,17,45,36,39,29,46,Alto,45,-67.883,-15.496
59,La Paz,Larecaja,Tacacoma,20603,16,45,27,66,38,54,10,0,0,0,10,0,17,43,33,37,28,45,Medio,37,-68.645,-15.589
60,La Paz,Larecaja,Quiabaya,20604,9,54,14,67,26,0,0,3,3,5,2,0,0,43,31,37,29,45,Muy Bajo,24,-68.703,-15.633
61,La Paz,Larecaja,Combaya,20605,17,61,32,58,23,0,0,17,1,0,1,0,0,43,36,38,32,43,Muy Bajo,28,-68.755,-15.805
62,La Paz,Larecaja,Tipuani,20606,17,44,10,61,37,28,10,0,0,0,13,0,17,42,25,35,29,45,Muy Bajo,31,-68.021,-15.565
63,La Paz,Larecaja,Mapiri,20607,20,58,15,63,50,28,10,17,4,45,12,0,17,41,31,38,34,44,Alto,47,-68.227,-15.310
64,La Paz,Larecaja,Teoponte,20608,16,45,10,62,46,65,51,0,4,0,10,0,17,44,31,37,30,45,Alto,48,-67.818,-15.496
65,La Paz,Franz Tamayo,Apolo,20701,30,69,42,65,52,72,51,3,1,7,16,0,14,44,38,39,28,46,Muy Alto,59,-68.418,-14.717
66,La Paz,Franz Tamayo,Pelechuco,20702,22,55,51,68,41,70,0,1,14,5,11,9,16,44,33,37,29,45,Alto,47,-69.070,-14.820
67,La Paz,Ingavi,Viacha,20801,3,40,16,58,12,42,0,15,3,29,2,0,11,41,39,38,31,41,Bajo,34,-68.302,-16.654
68,La Paz,Ingavi,Guaqui,20802,5,59,27,54,11,42,0,0,0,0,2,0,11,42,29,33,27,33,Muy Bajo,27,-68.837,-16.598
69,La Paz,Ingavi,Tiawanacu,20803,7,45,16,54,14,42,0,3,16,0,3,0,11,42,31,34,28,36,Muy Bajo,28,-68.681,-16.553
70,La Paz,Ingavi,Desaguadero,20804,5,60,29,57,13,66,0,29,5,6,2,0,11,32,33,31,31,28,Medio,39,-69.035,-16.566
71,La Paz,Ingavi,San Andrés de Machaca,20805,6,53,18,62,15,66,52,1,3,1,3,0,0,43,32,38,33,44,Alto,43,-68.969,-16.953
72,La Paz,Ingavi,Jesús de Machaca,20806,10,59,25,61,30,66,21,8,1,2,3,0,11,45,37,37,24,43,Medio,42,-68.807,-16.744
73,La Paz,Ingavi,Taraco,20807,4,45,10,56,5,42,0,39,2,51,3,0,0,44,29,34,29,36,Medio,40,-68.859,-16.457
74,La Paz,Loayza,Luribay,20901,5,58,18,73,10,0,21,72,2,46,1,0,0,44,33,39,35,44,Alto,49,-67.661,-17.063
75,La Paz,Loayza,Sapahaqui,20902,4,46,13,76,14,42,52,10,1,3,3,0,0,43,34,39,35,45,Medio,41,-67.950,-16.889
76,La Paz,Loayza,Yaco,20903,4,34,16,60,34,42,0,15,1,41,3,0,5,42,36,38,29,45,Medio,39,-67.411,-17.158
77,La Paz,Loayza,Malla,20904,5,58,52,72,50,59,0,17,1,27,2,0,0,41,35,38,33,42,Alto,48,-67.451,-17.040
78,La Paz,Loayza,Cairoma,20905,17,65,50,66,49,66,20,0,0,24,1,0,19,40,35,37,25,45,Muy Alto,52,-67.540,-16.903
79,La Paz,Inquisivi,Inquisivi,21001,22,59,19,70,43,59,20,0,0,0,13,0,16,42,35,37,28,45,Medio,43,-67.138,-16.908
80,La Paz,Inquisivi,Quime,21002,19,54,48,66,39,59,20,0,2,2,10,0,17,42,35,38,30,46,Alto,45,-67.218,-16.981
81,La Paz,Inquisivi,Cajuata,21003,28,65,38,64,39,42,20,47,38,6,12,0,17,42,29,35,26,44,Muy Alto,58,-67.173,-16.699
82,La Paz,Inquisivi,Colquiri,21004,8,61,24,70,53,42,0,0,0,0,1,0,14,42,35,37,25,47,Bajo,36,-67.129,-17.388
83,La Paz,Inquisivi,Ichoca,21005,20,59,35,58,31,42,0,0,0,29,2,0,7,43,33,37,29,43,Medio,38,-67.187,-17.140
84,La Paz,Inquisivi,Licoma Pampa,21006,20,58,24,61,30,0,0,0,42,2,9,0,17,46,29,35,22,44,Bajo,32,-67.202,-16.806
85,La Paz,Sur Yungas,Chulumani,21101,25,62,34,59,24,41,0,23,1,0,12,0,17,42,30,37,32,45,Medio,39,-67.526,-16.409
86,La Paz,Sur Yungas,Irupana,21102,21,59,53,69,43,59,19,1,13,4,10,0,17,42,35,37,28,43,Alto,49,-67.455,-16.466
87,La Paz,Sur Yungas,Yanacachi,21103,13,33,44,65,34,59,0,0,0,0,9,0,17,43,32,36,24,46,Bajo,36,-67.735,-16.391
88,La Paz,Sur Yungas,Palos Blancos,21104,19,56,14,64,17,65,51,22,3,33,16,0,14,44,32,37,28,45,Muy Alto,56,-67.248,-15.585
89,La Paz,Sur Yungas,La Asunta,21105,24,59,25,60,30,66,10,0,4,0,11,0,15,44,36,38,28,43,Medio,40,-67.195,-16.124
90,La Paz,Los Andes,Pucarani,21201,7,54,50,58,40,59,19,0,0,0,2,0,7,42,41,40,32,43,Medio,42,-68.477,-16.399
91,La Paz,Los Andes,Laja,21202,4,59,25,56,19,41,0,3,5,2,2,0,11,43,36,37,29,41,Muy Bajo,30,-68.386,-16.537
92,La Paz,Los Andes,Batallas,21203,8,66,60,61,57,54,19,0,34,2,1,0,0,41,41,39,31,42,Muy Alto,51,-68.532,-16.300
93,La Paz,Los Andes,Puerto Pérez,21204,7,54,19,50,15,41,0,0,8,4,1,0,0,43,31,38,33,45,Muy Bajo,28,-68.601,-16.285
94,La Paz,Aroma,Sica Sica,21301,4,46,13,58,14,58,19,12,0,19,3,0,5,44,35,37,24,44,Medio,38,-67.741,-17.334
95,La Paz,Aroma,Umala,21302,4,42,16,60,13,40,52,0,0,0,1,0,0,43,37,38,25,46,Bajo,36,-68.021,-17.373
96,La Paz,Aroma,Ayo Ayo,21303,6,66,40,60,27,0,0,46,3,71,1,0,0,44,32,36,24,45,Alto,48,-68.004,-17.091
97,La Paz,Aroma,Calamarca,21304,6,65,38,57,26,0,0,40,9,11,2,0,0,43,35,37,28,44,Bajo,37,-68.119,-16.910
98,La Paz,Aroma,Patacamaya,21305,5,55,21,59,17,0,0,8,13,20,2,0,0,43,34,38,32,46,Muy Bajo,28,-67.928,-17.241
99,La Paz,Aroma,Colquencha,21306,4,61,32,53,35,0,0,18,13,29,3,0,11,41,39,39,30,48,Medio,37,-68.249,-16.931
100,La Paz,Aroma,Collana,21307,4,61,33,53,35,0,0,8,13,20,3,0,11,44,38,38,26,46,Bajo,33,-68.284,-16.905
101,La Paz,Nor Yungas,Coroico,21401,27,61,31,66,34,40,0,6,7,4,12,0,17,42,32,37,29,46,Medio,38,-67.728,-16.188
102,La Paz,Nor Yungas,Coripata,21402,29,61,18,66,34,40,0,0,0,0,13,0,17,42,33,37,25,46,Bajo,34,-67.607,-16.314
103,La Paz,Abel Iturralde,Ixiamas,21501,23,59,25,62,43,72,51,73,4,20,18,24,7,40,34,37,30,44,Muy Alto,74,-68.125,-13.768
104,La Paz,Abel Iturralde,San Buena Ventura,21502,19,52,12,60,25,72,9,0,1,8,20,0,11,42,30,36,26,44,Medio,38,-67.537,-14.438
105,La Paz,Bautista Saavedra,Charazani,21601,25,59,45,61,44,54,0,3,1,17,12,9,17,41,33,36,29,43,Alto,45,-68.995,-15.177
106,La Paz,Bautista Saavedra,Curva,21602,31,60,55,65,33,54,0,10,74,23,11,9,16,43,27,37,31,46,Muy Alto,58,-68.999,-15.131
107,La Paz,Manco Kapac,Copacabana,21701,12,61,31,58,13,64,26,28,7,1,1,0,0,40,38,36,30,36,Alto,45,-69.087,-16.165
108,La Paz,Manco Kapac,San Pedro de Tiquina,21702,5,50,12,57,6,58,0,0,5,5,2,0,0,35,33,33,30,35,Muy Bajo,27,-68.854,-16.222
109,La Paz,Manco Kapac,Tito Yupanki,21703,4,44,16,50,14,28,0,5,1,0,3,0,0,36,36,33,22,38,Muy Bajo,23,-68.955,-16.189
110,La Paz,Gualberto Villarroe,San Pedro de Curahuara,21801,3,50,12,57,25,0,52,0,2,3,2,0,11,43,31,37,27,45,Bajo,33,-68.050,-17.654
111,La Paz,Gualberto Villarroe,Papel Pampa,21802,4,55,10,56,17,40,19,0,6,0,1,0,8,49,35,39,26,44,Muy Bajo,31,-67.770,-17.819
112,La Paz,Gualberto Villarroe,Chacarilla,21803,4,63,20,49,37,40,52,1,21,0,2,0,10,42,30,38,33,46,Alto,45,-68.216,-17.584
113,La Paz,General Jose Manuel,Santiago de Machaca,21901,4,48,35,71,14,0,18,0,9,1,3,0,0,42,36,39,32,45,Muy Bajo,28,-69.193,-17.067
114,La Paz,General Jose Manuel,Catacora,21902,4,63,51,67,15,0,18,0,0,5,3,0,0,46,36,38,26,45,Muy Bajo,31,-69.483,-17.161
115,La Paz,Caranavi,Caranavi,22001,29,64,20,66,38,53,0,0,9,0,13,0,17,44,36,38,29,43,Medio,39,-67.566,-15.833
116,La Paz,Caranavi,Alto Beni,22002,30,69,22,67,43,53,9,19,19,0,10,0,17,45,35,38,29,43,Alto,47,-67.450,-15.545
117,Cochabamba,Cercado,Cochabamba,30101,12,62,33,71,14,58,27,0,0,0,1,0,0,42,34,36,26,43,Medio,39,-66.159,-17.381
118,Cochabamba,Campero,Aiquile,30201,15,69,16,47,18,58,18,27,3,26,3,0,12,44,36,38,28,44,Alto,47,-65.180,-18.202
119,Cochabamba,Campero,Pasorapa,30202,10,55,10,56,17,39,18,7,1,76,10,0,9,42,30,36,29,44,Alto,46,-64.675,-18.322
120,Cochabamba,Campero,Omereque,30203,5,56,11,68,9,39,18,5,0,55,1,0,0,42,28,35,26,44,Medio,40,-64.908,-18.108
121,Cochabamba,Ayopaya,Ayopaya,30301,27,66,29,79,57,39,0,0,11,1,1,0,0,42,33,38,34,44,Medio,40,-66.818,-17.084
122,Cochabamba,Ayopaya,Morochata,30302,13,57,33,76,18,39,0,0,0,0,3,0,0,43,35,39,34,45,Muy Bajo,31,-66.532,-17.235
123,Cochabamba,Ayopaya,Cocapata,30303,26,62,39,71,47,66,18,10,0,0,16,0,16,41,36,37,28,44,Alto,49,-66.630,-16.838
124,Cochabamba,Esteban Arce,Tarata,30401,4,45,8,56,5,39,18,15,10,5,2,0,10,46,30,39,38,44,Bajo,33,-66.024,-17.613
125,Cochabamba,Esteban Arce,Anzaldo,30402,6,69,16,47,42,0,18,0,13,0,3,0,6,43,36,40,32,47,Muy Bajo,31,-65.936,-17.783
126,Cochabamba,Esteban Arce,Arbieto,30403,5,68,22,68,17,66,0,9,25,1,2,0,0,42,25,36,35,45,Medio,38,-66.015,-17.582
127,Cochabamba,Esteban Arce,Sacabamba,30404,3,53,18,69,7,0,0,13,12,27,2,0,0,44,30,38,28,51,Muy Bajo,29,-65.776,-17.812
128,Cochabamba,Arani,Arani,30501,5,68,41,70,28,39,0,17,1,1,1,0,0,41,29,37,34,45,Bajo,37,-65.770,-17.573
129,Cochabamba,Arani,Vacas,30502,3,40,44,72,4,66,0,8,3,23,5,0,0,43,23,35,30,43,Medio,37,-65.580,-17.575
130,Cochabamba,Arque,Arque,30601,6,67,30,55,51,0,0,3,40,11,2,0,10,42,35,37,28,44,Bajo,37,-66.402,-17.821
131,Cochabamba,Arque,Tacopaya,30602,4,45,13,58,14,0,0,78,4,10,1,0,0,43,35,38,29,43,Bajo,37,-66.535,-17.837
132,Cochabamba,Capinota,Capinota,30701,6,64,14,57,25,0,0,13,9,8,1,0,10,42,35,38,29,45,Muy Bajo,28,-66.263,-17.716
133,Cochabamba,Capinota,Santivañez,30702,4,47,9,71,6,39,0,45,28,1,1,0,0,42,30,38,34,46,Medio,38,-66.248,-17.550
134,Cochabamba,Capinota,Sicaya,30703,3,46,8,67,24,0,0,24,10,2,1,0,0,37,29,37,37,45,Muy Bajo,27,-66.334,-17.801
135,Cochabamba,German Jordan,Cliza,30801,4,62,19,64,24,0,0,0,0,0,2,0,0,44,28,36,29,42,Muy Bajo,22,-65.934,-17.592
136,Cochabamba,German Jordan,Toko,30802,3,43,10,64,13,0,0,0,0,0,2,0,0,41,38,38,31,42,Muy Bajo,18,-65.929,-17.625
137,Cochabamba,German Jordan,Tolata,30803,4,43,16,65,5,58,0,18,1,16,1,0,0,42,30,35,29,40,Bajo,33,-65.963,-17.534
138,Cochabamba,Quillacollo,Quillacollo,30901,6,54,38,74,15,39,0,44,9,45,2,0,0,43,34,37,25,45,Alto,48,-66.280,-17.395
139,Cochabamba,Quillacollo,Sipe Sipe,30902,4,45,13,74,14,39,0,64,4,76,2,0,0,41,32,38,33,46,Muy Alto,53,-66.354,-17.454
140,Cochabamba,Quillacollo,Tiquipaya,30903,4,44,33,72,5,38,0,37,2,1,4,0,0,42,30,35,29,39,Bajo,34,-66.220,-17.338
141,Cochabamba,Quillacollo,Vinto,30904,4,35,32,70,3,38,0,65,2,2,1,0,0,40,34,36,24,45,Medio,39,-66.316,-17.382
142,Cochabamba,Quillacollo,Colcapirhua,30905,6,62,19,61,14,0,0,72,9,8,3,0,0,26,22,23,24,20,Bajo,36,-66.241,-17.390
143,Cochabamba,Chapare,Sacaba,31001,15,53,36,76,7,58,27,0,1,0,9,0,0,46,34,38,30,45,Medio,39,-66.039,-17.402
144,Cochabamba,Chapare,Colomi,31002,28,61,33,64,14,66,0,0,0,2,11,0,13,41,29,37,29,46,Bajo,36,-65.868,-17.338
145,Cochabamba,Chapare,Villa Tunari,31003,14,39,33,63,22,73,52,26,24,12,18,0,11,42,33,37,30,42,Muy Alto,58,-65.420,-16.973
146,Cochabamba,Tapacari,Tapacarí,31101,4,45,13,67,37,38,0,46,5,5,4,0,14,43,32,37,29,44,Medio,41,-66.616,-17.521
147,Cochabamba,Carrasco,Totora,31201,15,43,16,74,13,38,52,0,2,1,11,0,13,42,33,37,31,42,Medio,40,-65.191,-17.737
148,Cochabamba,Carrasco,Pojo,31202,21,55,20,60,8,38,17,8,1,37,12,21,11,43,27,37,30,45,Medio,43,-64.866,-17.758
149,Cochabamba,Carrasco,Pocona,31203,10,55,40,59,8,0,26,15,3,11,3,0,13,42,31,36,28,44,Bajo,35,-65.420,-17.675
150,Cochabamba,Carrasco,Chimoré,31204,27,62,50,61,24,73,64,8,0,0,18,37,11,42,37,39,31,47,Muy Alto,62,-65.151,-16.994
151,Cochabamba,Carrasco,Puerto Villarroel,31205,20,54,25,60,15,66,52,16,1,2,16,0,12,44,35,38,28,46,Alto,50,-64.793,-16.839
152,Cochabamba,Carrasco,Bulo Bulo,31206,29,65,39,60,16,66,17,8,4,5,19,21,17,39,36,37,28,43,Alto,48,-64.348,-17.260
153,Cochabamba,Mizque,Mizque,31301,9,58,18,64,50,37,52,6,5,17,4,0,10,42,36,38,29,46,Alto,50,-65.343,-17.943
154,Cochabamba,Mizque,Vila Vila,31302,4,40,7,48,4,0,52,9,1,0,1,0,6,42,30,35,25,44,Muy Bajo,29,-65.632,-17.982
155,Cochabamba,Mizque,Alalay,31303,5,69,42,73,18,0,0,2,0,12,4,0,0,37,29,34,26,46,Muy Bajo,28,-65.699,-17.701
156,Cochabamba,Punata,Punata,31401,5,54,19,66,7,0,0,11,1,7,2,0,0,36,28,33,27,41,Muy Bajo,23,-65.838,-17.546
157,Cochabamba,Punata,Villa Rivero,31402,3,40,10,66,4,0,0,20,2,0,2,0,0,40,26,33,33,33,Muy Bajo,20,-65.813,-17.616
158,Cochabamba,Punata,San Benito,31403,4,52,18,68,7,37,0,0,51,17,3,0,0,42,32,39,37,45,Bajo,36,-65.894,-17.523
159,Cochabamba,Punata,Tacachi,31404,3,45,11,60,5,0,0,12,25,0,1,0,0,31,23,31,29,39,Muy Bajo,22,-65.801,-17.642
160,Cochabamba,Punata,Cuchumuela,31405,4,60,29,65,13,0,0,10,0,13,2,0,0,36,25,33,28,42,Muy Bajo,26,-65.796,-17.666
161,Cochabamba,Bolivar,Bolivar,31501,5,66,39,52,39,37,17,0,0,4,2,0,14,44,35,39,34,44,Medio,38,-66.537,-17.970
162,Cochabamba,Tiraque,Tiraque,31601,16,44,33,74,14,58,17,0,0,0,11,0,13,44,36,39,29,46,Medio,37,-65.724,-17.427
163,Cochabamba,Tiraque,Shinahota,31602,15,46,22,60,6,37,52,71,4,3,18,0,14,44,30,37,29,44,Muy Alto,54,-65.245,-16.994
164,Oruro,Cercado,Oruro,40101,5,56,15,58,18,58,16,78,13,22,3,0,12,45,25,33,22,40,Muy Alto,55,-67.112,-17.968
165,Oruro,Cercado,Caracollo,40102,6,64,28,52,55,58,52,0,0,3,3,0,7,44,36,37,24,44,Alto,49,-67.213,-17.643
166,Oruro,Cercado,El Choro,40103,11,60,17,61,22,58,64,52,48,13,2,1,13,52,35,40,29,44,Muy Alto,67,-67.116,-18.357
167,Oruro,Cercado,Paria,40104,5,55,21,62,41,37,0,0,4,1,1,0,7,44,35,38,29,45,Muy Bajo,32,-67.022,-17.817
168,Oruro,Abaroa,Challapata,40201,6,63,26,67,37,58,52,0,0,0,2,0,11,44,34,38,29,44,Alto,47,-66.775,-18.901
169,Oruro,Abaroa,Santuario de Quillacas,40202,3,47,9,60,24,36,70,32,2,59,2,0,8,40,29,36,29,44,Muy Alto,59,-66.942,-19.233
170,Oruro,Carangas,Corque,40301,6,61,23,62,34,58,64,0,0,0,2,0,9,42,34,37,28,46,Alto,48,-67.682,-18.351
171,Oruro,Carangas,Choque Cota,40302,4,62,34,61,14,36,16,0,0,0,3,0,10,42,24,33,27,39,Muy Bajo,32,-67.925,-16.521
172,Oruro,Sajama,Curahuara de Carangas,40401,5,60,55,53,22,36,16,0,4,0,2,0,9,41,26,36,32,46,Bajo,36,-68.410,-17.842
173,Oruro,Sajama,Turco,40402,4,42,26,65,4,36,0,63,3,34,1,0,11,44,28,36,35,36,Alto,44,-68.194,-18.181
174,Oruro,Litoral,Huachacalla,40501,4,59,20,51,11,0,0,16,1,27,2,0,11,28,24,28,27,35,Muy Bajo,27,-68.262,-18.793
175,Oruro,Litoral,Escara,40502,5,60,21,62,21,0,0,0,6,4,2,0,9,43,28,34,25,41,Muy Bajo,24,-68.170,-18.860
176,Oruro,Litoral,Cruz de Machacamarca,40503,6,60,22,59,13,0,0,0,0,0,1,0,9,43,35,36,21,44,Muy Bajo,21,-68.312,-18.771
177,Oruro,Litoral,Yunguyo del Litoral,40504,3,33,6,56,3,0,0,0,0,0,3,0,8,32,25,28,21,35,Muy Bajo,14,-68.321,-18.853
178,Oruro,Litoral,Esmeralda,40505,4,60,12,60,21,0,52,1,2,2,3,0,9,46,30,32,22,31,Bajo,33,-68.281,-18.844
179,Oruro,Poopo,Poopó,40601,7,55,20,59,41,36,64,2,1,29,3,15,9,43,35,39,30,47,Muy Alto,53,-66.969,-18.380
180,Oruro,Poopo,Pazña,40602,4,55,16,64,49,66,52,2,8,11,2,0,9,44,30,36,27,45,Muy Alto,51,-66.921,-18.599
181,Oruro,Poopo,Antequera,40603,5,69,42,53,58,35,16,13,10,50,4,0,14,41,29,35,28,41,Muy Alto,53,-66.826,-18.471
182,Oruro,Pantaleon Dalence,Huanuni,40701,4,59,26,60,51,0,15,0,0,0,2,0,14,43,33,37,29,43,Muy Bajo,31,-66.840,-18.288
183,Oruro,Pantaleon Dalence,Machacamarca,40702,5,58,24,59,42,58,52,6,21,1,1,0,12,44,24,34,27,43,Muy Alto,50,-67.021,-18.172
184,Oruro,Ladislao Cabrera,Salinas de Garci Mendoza,40801,7,53,14,66,15,35,72,0,0,0,2,0,6,44,36,38,28,45,Medio,42,-67.676,-19.638
185,Oruro,Ladislao Cabrera,Pampa Aullagas,40802,5,56,11,61,28,35,70,13,19,21,3,0,5,42,35,37,28,44,Muy Alto,52,-67.062,-19.197
186,Oruro,Sabaya,Sabaya,40901,5,54,29,65,25,58,14,4,3,5,2,0,8,45,30,35,22,44,Medio,38,-68.373,-19.016
187,Oruro,Sabaya,Coipasa,40902,4,62,25,61,70,0,0,1,0,16,2,0,4,43,19,34,29,45,Bajo,33,-68.278,-19.278
188,Oruro,Sabaya,Chipaya,40903,6,62,8,64,24,0,52,21,6,1,2,0,13,42,21,30,27,30,Medio,38,-68.089,-19.042
189,Oruro,Saucari,Toledo,41001,4,43,13,65,37,66,72,12,15,35,2,0,8,43,36,38,30,44,Muy Alto,60,-67.407,-18.182
190,Oruro,Tomas Barron,Eucaliptus,41101,5,60,12,54,44,65,14,5,19,4,4,0,4,44,31,35,24,41,Medio,42,-67.508,-17.597
191,Oruro,Sur Carangas,Andamarca,41201,5,69,16,57,28,35,70,0,0,0,2,0,11,43,30,36,28,42,Alto,45,-67.641,-18.817
192,Oruro,Sur Carangas,Belén de Andamarca,41202,5,66,21,63,26,58,72,39,22,18,3,15,8,42,36,38,31,42,Muy Alto,66,-67.508,-18.779
193,Oruro,San Pedro De Totora,Totora,41301,4,43,16,55,13,38,52,22,6,17,1,0,13,41,28,36,29,46,Alto,45,-68.146,-17.794
194,Oruro,Sebastian Pagador,Santiago de Huari,41401,4,48,13,64,38,0,52,0,10,0,2,0,8,42,34,37,26,46,Bajo,36,-66.777,-19.012
195,Oruro,Mejillones,La Rivera,41501,5,59,34,58,10,0,0,0,21,1,1,0,8,48,26,33,23,35,Muy Bajo,25,-68.640,-19.005
196,Oruro,Mejillones,Todos Santos,41502,3,43,13,51,5,0,0,0,0,0,3,0,11,44,27,34,21,45,Muy Bajo,17,-68.721,-19.015
197,Oruro,Mejillones,Carangas,41503,6,64,27,54,15,0,0,6,3,12,1,0,11,42,28,34,20,44,Muy Bajo,26,-68.624,-18.939
198,Oruro,Nor Carangas,Santiago de Huayllamarca,41601,4,48,17,55,24,35,14,31,6,2,2,0,8,43,34,38,29,47,Medio,37,-67.946,-17.841
199,Potosi,Tomas Frias,Potosí,50101,4,55,15,63,49,57,52,23,1,29,1,0,11,42,32,37,31,41,Muy Alto,56,-65.754,-19.581
200,Potosi,Tomas Frias,Tinquipaya,50102,4,45,13,60,37,0,51,16,16,15,1,0,11,43,33,37,29,45,Medio,43,-65.821,-19.222
201,Potosi,Tomas Frias,Yocalla,50103,4,33,6,61,43,35,51,9,1,7,3,0,7,41,31,36,31,41,Medio,42,-65.906,-19.391
202,Potosi,Tomas Frias,Urmiri,50104,3,41,12,63,36,35,70,17,7,17,2,0,8,41,36,39,33,45,Muy Alto,51,-66.064,-19.386
203,Potosi,Rafael Bustillo,Uncía,50201,3,42,12,58,36,35,13,0,8,1,1,0,14,42,34,37,28,45,Muy Bajo,32,-66.568,-18.466
204,Potosi,Rafael Bustillo,Chayanta,50202,6,63,14,60,55,0,13,8,0,0,1,0,12,45,34,39,33,46,Bajo,32,-66.442,-18.461
205,Potosi,Rafael Bustillo,Llallagua,50203,4,58,19,56,42,34,13,9,9,12,3,0,11,45,35,39,28,47,Medio,39,-66.583,-18.423
206,Potosi,Rafael Bustillo,Chuquihuta,50204,4,62,13,61,54,0,12,7,22,1,1,0,0,42,33,37,29,45,Bajo,34,-66.368,-18.592
207,Potosi,Cornelio Saavedra,Betanzos,50301,6,66,15,52,50,57,51,0,16,1,2,0,11,43,34,38,30,46,Alto,49,-65.453,-19.553
208,Potosi,Cornelio Saavedra,Chaquí,50302,4,63,26,56,55,34,12,37,31,2,3,0,11,42,34,37,34,40,Alto,49,-65.561,-19.588
209,Potosi,Cornelio Saavedra,Tacobamba,50303,4,45,8,53,46,0,12,51,49,1,1,0,10,42,37,38,29,44,Alto,44,-65.556,-19.207
210,Potosi,Chayanta,Colquechaca,50401,6,61,24,62,46,0,51,0,0,30,1,0,10,43,34,37,28,43,Alto,44,-66.002,-18.697
211,Potosi,Chayanta,Ravelo,50402,5,54,10,53,15,0,51,1,13,15,4,0,10,42,36,38,24,48,Bajo,36,-65.512,-18.807
212,Potosi,Chayanta,Pocoata,50403,5,55,16,57,41,0,11,1,2,21,3,0,10,42,33,37,27,47,Muy Bajo,31,-66.162,-18.700
213,Potosi,Chayanta,Ocurí,50404,5,56,17,61,41,0,11,0,0,0,1,0,10,43,36,38,28,43,Muy Bajo,27,-65.796,-18.842
214,Potosi,Charcas,San Pedro,50501,16,50,14,56,25,70,64,15,0,1,2,0,12,43,36,39,32,46,Muy Alto,51,-65.980,-18.270
215,Potosi,Charcas,Toro Toro,50502,7,43,8,58,45,34,11,3,3,6,1,4,9,43,34,37,27,43,Bajo,33,-65.761,-18.134
216,Potosi,Nor Chichas,Cotagaita,50601,5,61,19,58,46,34,64,0,0,3,1,0,10,46,30,38,30,45,Alto,47,-65.658,-20.816
217,Potosi,Nor Chichas,Vitiche,50602,4,35,7,59,11,34,11,3,11,4,3,0,12,45,36,39,33,43,Muy Bajo,28,-65.493,-20.208
218,Potosi,Alonso de Ibañez,Sacaca,50701,5,53,14,52,25,0,11,0,0,0,4,0,9,40,36,38,30,45,Muy Bajo,24,-66.384,-18.068
219,Potosi,Alonso de Ibañez,Caripuyo,50702,4,64,27,56,37,33,11,0,21,13,2,0,12,42,37,38,30,43,Medio,39,-66.473,-18.232
220,Potosi,Sur Chichas,Tupiza,50801,4,42,12,59,36,0,64,0,0,0,6,0,9,44,32,38,30,48,Bajo,37,-65.720,-21.441
221,Potosi,Sur Chichas,Atocha,50802,6,67,30,62,51,0,51,0,0,0,4,0,11,42,33,37,29,43,Medio,41,-66.219,-20.932
222,Potosi,Nor Lipez,"Colcha""K""",50901,6,62,39,71,54,70,72,1,2,3,1,0,7,42,30,35,25,44,Muy Alto,58,-67.660,-20.740
223,Potosi,Nor Lipez,San Pedro de Quemes,50902,4,50,28,64,14,57,72,0,1,2,2,0,8,44,36,38,28,44,Alto,47,-68.049,-20.747
224,Potosi,Sur Lipez,San Pablo de Lipez,51001,4,50,28,69,25,73,72,0,0,0,1,23,7,41,22,33,29,39,Muy Alto,53,-66.616,-21.686
225,Potosi,Sur Lipez,Mojinete,51002,5,57,17,62,29,0,11,30,2,6,3,0,17,46,19,38,36,50,Bajo,34,-66.241,-21.765
226,Potosi,Sur Lipez,San Antonio de Esmoruco,51003,3,53,14,60,25,70,70,6,20,18,2,23,9,44,27,36,29,43,Muy Alto,58,-66.517,-21.948
227,Potosi,Jose Maria Linares,Puna,51101,5,54,15,56,26,57,11,56,11,1,4,0,13,42,31,37,28,46,Alto,47,-65.506,-19.795
228,Potosi,Jose Maria Linares,"Caiza ""D""",51102,6,65,28,58,49,33,11,12,2,52,2,0,15,44,35,39,32,43,Alto,49,-65.654,-20.007
229,Potosi,Jose Maria Linares,Ckochas,51103,6,62,13,55,47,33,11,68,3,3,4,0,11,41,33,37,28,44,Alto,48,-65.275,-19.638
230,Potosi,Antonio Quijarro,Uyuni,51201,4,41,12,65,35,70,64,16,8,23,3,0,7,44,34,37,28,43,Muy Alto,56,-66.823,-20.460
231,Potosi,Antonio Quijarro,Tomave,51202,4,43,13,62,37,57,72,45,17,42,3,0,8,45,36,39,31,45,Muy Alto,67,-66.531,-20.065
232,Potosi,Antonio Quijarro,Porco,51203,5,55,10,64,59,33,70,82,4,17,2,0,11,42,33,38,30,46,Muy Alto,68,-65.989,-19.798
233,Potosi,General Bernardino Bilbao,Arampampa,51301,6,68,16,56,28,0,11,73,3,2,2,0,3,45,37,40,35,44,Medio,42,-66.080,-17.875
234,Potosi,General Bernardino Bilbao,Acasio,51302,6,10,16,56,18,0,11,18,3,44,4,0,5,43,36,38,29,43,Muy Bajo,31,-66.057,-18.024
235,Potosi,Daniel Campos,Llica,51401,5,58,34,62,30,33,72,10,1,1,3,0,7,43,27,37,32,46,Alto,49,-68.248,-19.852
236,Potosi,Daniel Campos,Tahua,51402,4,45,13,65,24,0,53,8,1,32,1,0,6,43,29,35,28,40,Medio,40,-67.693,-19.890
237,Potosi,Modesto Omiste,Villazón,51501,4,37,7,62,11,0,11,6,6,18,5,0,7,40,32,36,30,44,Muy Bajo,25,-65.597,-22.090
238,Potosi,Enrique Baldivieso,San Agustín,51601,5,53,9,60,25,33,72,42,2,0,1,0,12,40,30,35,29,39,Muy Alto,51,-67.678,-21.155
239,Tarija,Cercado,Tarija,60101,14,45,13,55,14,57,64,21,4,52,11,0,8,41,30,36,29,46,Muy Alto,57,-64.733,-21.532
240,Tarija,Arce,Padcaya,60201,18,56,17,52,18,65,64,4,14,7,10,0,7,43,27,35,25,44,Muy Alto,50,-64.709,-21.882
241,Tarija,Arce,Bermejo,60202,26,66,21,57,16,70,0,3,0,0,13,0,14,44,23,33,22,44,Bajo,36,-64.342,-22.733
242,Tarija,Gran Chaco,Yacuiba,60301,13,34,6,62,3,70,51,18,8,12,9,0,11,44,27,36,30,43,Alto,46,-63.677,-22.013
243,Tarija,Gran Chaco,Caraparí,60302,27,64,14,54,15,56,11,2,0,1,10,0,10,42,20,34,29,45,Bajo,34,-63.742,-21.828
244,Tarija,Gran Chaco,Villa Montes,60303,13,40,7,57,4,73,64,0,8,0,9,0,8,41,30,35,25,44,Alto,44,-63.475,-21.260
245,Tarija,Avilez,Uriondo,60401,11,41,7,50,13,33,64,0,0,0,8,0,6,42,26,36,32,46,Medio,37,-64.663,-21.697
246,Tarija,Avilez,Yunchara,60402,4,33,11,54,3,65,72,11,8,1,7,0,9,42,34,37,25,45,Alto,46,-65.230,-21.822
247,Tarija,Mendez,San Lorenzo,60501,13,51,9,56,6,56,64,0,0,0,6,0,11,44,32,36,27,43,Medio,42,-64.749,-21.415
248,Tarija,Mendez,El Puente,60502,24,60,17,68,22,33,64,64,13,27,18,0,15,41,33,37,27,46,Muy Alto,65,-65.206,-21.231
249,Tarija,Burnet O'Connor,Entre Ríos,60601,24,60,12,51,52,65,51,18,2,35,10,0,9,43,29,36,25,45,Muy Alto,59,-64.171,-21.527
250,Santa Cruz,Andres Ibañez,Santa Cruz de la Sierra,70101,8,48,12,76,6,70,10,0,0,0,4,0,24,37,28,34,29,43,Bajo,33,-63.179,-17.784
251,Santa Cruz,Andres Ibañez,Cotoca,70102,12,61,17,73,13,65,10,35,4,42,4,0,24,37,26,31,27,36,Muy Alto,50,-62.996,-17.754
252,Santa Cruz,Andres Ibañez,Ayacucho,70103,29,66,21,73,17,65,10,80,33,6,11,28,30,45,28,34,23,39,Muy Alto,65,-63.309,-17.852
253,Santa Cruz,Andres Ibañez,La Guardia,70104,16,59,11,74,10,55,51,0,0,0,8,35,28,41,35,37,29,45,Alto,48,-63.329,-17.893
254,Santa Cruz,Andres Ibañez,El Torno,70105,26,60,12,70,12,31,10,11,1,0,11,28,36,43,29,34,21,43,Medio,37,-63.382,-17.992
255,Santa Cruz,Warnes,Warnes,70201,7,35,9,70,3,55,10,6,27,10,12,0,27,44,29,35,28,41,Bajo,36,-63.164,-17.509
256,Santa Cruz,Warnes,Okinawa Uno,70202,8,56,15,75,9,70,51,9,7,14,10,0,24,43,29,32,22,33,Alto,49,-62.892,-17.218
257,Santa Cruz,Velasco,San Ignacio,70301,17,52,17,65,14,72,51,0,31,8,17,45,10,41,37,38,30,44,Muy Alto,57,-60.962,-16.375
258,Santa Cruz,Velasco,San Miguel,70302,13,50,9,74,14,70,0,11,15,3,9,22,0,42,35,37,26,46,Medio,39,-60.967,-16.698
259,Santa Cruz,Velasco,San Rafael,70303,12,49,9,70,6,72,10,9,14,8,11,33,0,40,22,32,22,45,Medio,41,-60.675,-16.787
260,Santa Cruz,Ichilo,Buena Vista,70401,27,65,20,74,16,65,11,40,3,3,15,21,37,41,32,35,22,43,Muy Alto,52,-63.660,-17.459
261,Santa Cruz,Ichilo,San Carlos,70402,15,52,12,71,7,65,11,0,4,2,17,21,40,43,36,38,30,45,Medio,39,-63.732,-17.406
262,Santa Cruz,Ichilo,Yapacaní,70403,13,33,16,68,11,73,64,18,97,52,15,32,25,45,35,38,26,46,Muy Alto,78,-63.884,-17.401
263,Santa Cruz,Ichilo,San Juan,70404,17,51,17,70,6,70,51,0,0,10,19,0,25,43,31,35,22,44,Alto,47,-63.849,-17.291
264,Santa Cruz,Chiquitos,San José,70501,13,51,9,74,14,70,51,18,6,85,9,33,25,43,35,38,29,44,Muy Alto,69,-60.741,-17.845
265,Santa Cruz,Chiquitos,Pailón,70502,14,56,11,79,17,72,51,0,14,6,9,0,43,43,35,38,28,46,Muy Alto,51,-62.717,-17.660
266,Santa Cruz,Chiquitos,Roboré,70503,15,54,10,72,7,31,70,47,3,12,8,21,27,43,33,37,28,45,Muy Alto,57,-59.757,-18.332
267,Santa Cruz,Sara,Portachuelo,70601,15,55,14,71,8,56,51,1,14,0,18,0,29,45,34,37,26,43,Alto,45,-63.394,-17.353
268,Santa Cruz,Sara,Santa Rosa del Sara,70602,16,48,17,75,6,73,0,0,0,11,17,0,38,43,32,36,25,45,Bajo,36,-63.599,-17.109
269,Santa Cruz,Sara,Colpa Belgica,70603,8,61,18,67,14,55,10,61,7,21,4,0,23,37,33,31,20,32,Muy Alto,50,-63.227,-17.567
270,Santa Cruz,Cordillera,Lagunillas,70701,21,59,7,76,10,56,0,18,2,5,3,0,25,39,21,32,22,47,Bajo,35,-63.674,-19.650
271,Santa Cruz,Cordillera,Charagua,70702,21,63,14,76,14,72,72,0,0,0,10,57,33,41,35,37,27,44,Muy Alto,60,-63.198,-19.791
272,Santa Cruz,Cordillera,Cabezas,70703,26,65,14,75,16,73,64,12,5,1,8,35,26,43,35,38,29,43,Muy Alto,59,-63.300,-18.789
273,Santa Cruz,Cordillera,Cuevo,70704,25,60,8,57,13,32,0,3,0,0,3,0,16,43,31,36,27,44,Muy Bajo,27,-63.520,-20.454
274,Santa Cruz,Cordillera,Gutiérrez,70705,21,59,7,68,11,65,11,2,0,0,8,0,25,44,29,37,29,44,Bajo,35,-63.530,-19.423
275,Santa Cruz,Cordillera,Camiri,70706,29,64,8,66,15,55,0,100,34,1,5,0,28,42,29,36,29,44,Muy Alto,59,-63.522,-20.040
276,Santa Cruz,Cordillera,Boyuibe,70707,14,66,9,60,16,30,0,7,32,25,3,0,19,42,35,37,28,43,Medio,38,-63.281,-20.445
277,Santa Cruz,Valle Grande,Valle Grande,70801,14,40,7,59,4,65,11,5,5,2,9,0,15,40,34,36,28,42,Bajo,32,-64.106,-18.489
278,Santa Cruz,Valle Grande,Trigal,70802,12,43,8,69,4,32,0,0,0,0,9,0,0,43,26,35,30,41,Muy Bajo,22,-64.149,-18.305
279,Santa Cruz,Valle Grande,Moro Moro,70803,10,57,11,74,9,32,10,11,2,3,8,0,0,42,34,37,30,44,Muy Bajo,31,-64.324,-18.366
280,Santa Cruz,Valle Grande,Postrer Valle,70804,19,55,10,63,8,32,10,28,5,5,8,35,17,43,29,34,25,40,Medio,40,-63.841,-18.493
281,Santa Cruz,Valle Grande,Pucará,70805,17,55,10,52,8,55,10,5,0,5,9,0,11,40,25,34,26,46,Muy Bajo,32,-64.186,-18.715
282,Santa Cruz,Florida,Samaipata,70901,19,53,10,72,7,32,10,0,0,1,8,28,17,41,37,38,28,46,Bajo,32,-63.877,-18.179
283,Santa Cruz,Florida,Pampa Grande,70902,20,55,10,68,8,32,10,26,12,19,11,21,0,44,36,38,28,44,Medio,41,-64.111,-18.091
284,Santa Cruz,Florida,Mairana,70903,22,58,11,65,10,32,10,0,0,0,10,28,0,41,35,37,28,44,Muy Bajo,32,-63.959,-18.121
285,Santa Cruz,Florida,Quirusillas,70904,20,54,10,63,7,0,10,1,86,2,8,35,17,44,30,37,26,46,Medio,40,-63.948,-18.335
286,Santa Cruz,Obispo Santisteban,Montero,71001,7,57,15,69,9,55,10,3,23,6,3,0,24,30,28,29,20,38,Bajo,36,-63.257,-17.341
287,Santa Cruz,Obispo Santisteban,Gral. Saavedra,71002,9,59,16,70,12,30,10,0,0,4,18,0,30,42,35,37,28,42,Muy Bajo,32,-63.213,-17.226
288,Santa Cruz,Obispo Santisteban,Mineros,71003,6,58,15,67,10,30,10,21,2,1,14,0,30,41,26,33,27,38,Bajo,34,-63.231,-17.119
289,Santa Cruz,Obispo Santisteban,Fernández Alonso,71004,11,59,16,73,12,55,10,0,10,2,17,0,30,42,36,38,29,43,Bajo,37,-63.231,-17.006
290,Santa Cruz,Obispo Santisteban,San Pedro,71005,6,50,12,71,6,70,64,0,6,6,19,0,12,42,30,36,28,45,Alto,48,-63.481,-16.826
291,Santa Cruz,Ñuflo De Chavez,Concepción,71101,27,61,18,74,34,70,9,1,1,46,9,31,0,42,33,37,30,43,Muy Alto,52,-62.025,-16.135
292,Santa Cruz,Ñuflo De Chavez,San Javier,71102,17,52,12,64,6,27,9,22,20,11,18,41,8,45,37,37,27,38,Medio,42,-62.504,-16.274
293,Santa Cruz,Ñuflo De Chavez,San Julián,71103,16,51,12,74,14,72,10,0,4,4,16,0,32,41,34,37,31,44,Medio,39,-62.618,-16.912
294,Santa Cruz,Ñuflo De Chavez,San Antonio de Lomerio,71104,13,52,12,63,15,0,0,6,14,5,14,22,0,43,34,37,29,44,Muy Bajo,28,-61.810,-16.769
295,Santa Cruz,Ñuflo De Chavez,San Ramón,71105,14,49,12,65,6,72,9,0,12,1,16,0,7,43,35,38,30,46,Bajo,35,-62.500,-16.614
296,Santa Cruz,Ñuflo De Chavez,Cuatro Cañadas,71106,13,60,13,71,13,70,51,0,0,0,10,0,42,43,36,37,27,42,Alto,47,-62.557,-17.267
297,Santa Cruz,Angel Sandoval,San Matías,71201,16,50,12,75,25,72,0,0,7,0,10,33,16,42,35,37,26,46,Medio,40,-58.401,-16.361
298,Santa Cruz,Manuel María Caballero,Comarapa,71301,26,61,24,68,13,32,10,39,1,2,15,21,13,44,33,38,34,42,Alto,44,-64.527,-17.915
299,Santa Cruz,Manuel María Caballero,Saipina,71302,6,53,10,65,7,32,10,3,19,5,2,0,0,41,28,34,22,47,Muy Bajo,29,-64.584,-18.094
300,Santa Cruz,German Busch,Puerto Suárez,71401,10,54,13,70,7,65,0,60,2,0,9,31,14,41,36,38,29,46,Alto,48,-57.798,-18.965
301,Santa Cruz,German Busch,Puerto Quijarro,71402,12,54,13,67,7,72,0,77,90,8,12,6,12,43,31,37,27,47,Muy Alto,63,-57.716,-19.006
302,Santa Cruz,German Busch,El Carmen Rivero Torrez,71403,19,60,17,71,22,30,10,6,0,24,10,22,16,41,35,38,29,46,Medio,40,-58.624,-18.828
303,Santa Cruz,Guarayos,Ascención de Guarayos,71501,28,67,21,68,17,70,0,0,1,0,18,41,7,43,29,37,31,46,Medio,42,-63.190,-15.892
304,Santa Cruz,Guarayos,Urubicha,71502,15,41,10,70,4,72,0,16,14,76,18,41,7,50,31,35,23,37,Muy Alto,54,-63.084,-15.628
305,Santa Cruz,Guarayos,El Puente,71503,5,60,12,51,12,33,64,0,0,0,7,0,15,42,35,39,35,44,Medio,40,-62.911,-16.329
306,Beni,Cercado,Trinidad,80101,15,42,10,61,4,70,9,2,5,43,14,41,9,43,30,35,28,40,Alto,45,-64.902,-14.836
307,Beni,Cercado,San Javier,80102,15,52,12,71,14,27,9,0,1,0,10,41,8,43,34,38,29,46,Bajo,34,-64.881,-14.600
308,Beni,Vaca Diez,Riveralta,80201,19,54,13,57,7,72,0,12,16,3,15,0,10,42,37,38,28,45,Medio,37,-66.072,-11.002
309,Beni,Vaca Diez,Guayaramerín,80202,24,59,16,61,11,72,0,13,0,24,17,0,9,44,30,37,28,46,Medio,41,-65.355,-10.816
310,Beni,General Jose Balliv,Reyes,80301,19,54,13,60,7,72,9,0,0,0,16,0,9,48,36,40,29,45,Bajo,35,-67.336,-14.296
311,Beni,General Jose Balliv,San Borja,80302,16,52,12,65,7,70,0,0,25,2,15,0,9,44,34,38,28,45,Bajo,36,-66.747,-14.858
312,Beni,General Jose Balliv,Santa Rosa,80303,15,48,12,61,6,72,0,4,0,3,17,0,11,41,33,35,22,44,Bajo,32,-66.792,-14.079
313,Beni,General Jose Balliv,Rurrenabaque,80304,19,54,13,58,7,64,9,7,15,8,17,0,7,41,34,37,29,44,Medio,38,-67.528,-14.442
314,Beni,Yacuma,Santa Ana,80401,16,49,12,65,6,72,9,13,100,24,15,0,10,43,35,36,22,44,Muy Alto,55,-65.427,-13.744
315,Beni,Yacuma,Exaltación,80402,25,59,16,68,21,72,9,0,46,1,15,6,9,43,36,37,30,41,Alto,46,-65.250,-13.320
316,Beni,Moxos,San Ignacio,80501,17,52,9,77,15,72,51,10,59,8,18,45,10,41,35,38,30,44,Muy Alto,63,-65.638,-14.996
317,Beni,Marban,Loreto,80601,22,58,24,63,10,72,51,0,24,0,18,0,11,41,36,38,31,44,Muy Alto,50,-64.760,-15.194
318,Beni,Marban,San Andrés,80602,18,53,13,65,7,72,0,2,11,8,14,41,8,43,30,36,27,43,Medio,40,-64.666,-15.023
319,Beni,Mamore,San Joaquín,80701,17,52,12,68,14,72,9,20,13,39,18,0,10,43,36,37,29,43,Alto,48,-64.668,-13.041
320,Beni,Mamore,San Ramón,80702,9,49,12,64,25,72,9,0,0,2,10,0,7,43,24,36,30,46,Bajo,35,-64.617,-13.266
321,Beni,Mamore,Puerto Siles,80703,18,54,13,64,7,72,0,37,13,15,14,0,9,49,28,37,29,43,Alto,44,-65.002,-12.799
322,Beni,Itenez,Magdalena,80801,20,58,15,67,10,72,0,11,5,2,14,0,10,42,35,37,28,44,Bajo,37,-64.055,-13.262
323,Beni,Itenez,Baures,80802,27,66,21,63,40,72,0,17,4,2,17,0,11,41,36,38,28,47,Alto,45,-63.696,-13.655
324,Beni,Itenez,Huacaraje,80803,22,59,16,63,11,72,0,0,0,1,18,0,6,44,28,36,28,43,Bajo,34,-63.880,-13.593
325,Pando,Nicolas Suarez,Cobija,90101,15,48,12,62,6,28,0,0,6,5,18,0,6,49,32,38,29,42,Muy Bajo,26,-68.761,-11.025
326,Pando,Nicolas Suarez,Campo Ana Porvenir,90102,28,64,20,66,15,64,0,0,0,0,15,0,18,43,25,33,24,41,Bajo,35,-68.688,-11.237
327,Pando,Nicolas Suarez,Mukden,90103,25,57,15,64,9,64,0,85,19,54,18,0,17,52,26,36,23,43,Muy Alto,63,-69.567,-10.945
328,Pando,Nicolas Suarez,Costa rica,90104,25,61,18,70,13,70,0,5,19,4,16,0,19,47,29,36,25,43,Medio,40,-67.792,-11.124
329,Pando,Manuripi,Victoria,90201,14,40,10,65,12,72,0,32,2,46,14,24,13,42,33,37,29,44,Alto,50,-67.556,-11.105
330,Pando,Manuripi,San Pablo,90202,17,50,12,61,14,72,0,1,12,0,15,0,12,43,30,35,22,44,Bajo,34,-66.185,-10.825
331,Pando,Manuripi,Arroyo Grande,90203,30,67,21,63,51,72,9,0,0,4,15,24,11,42,34,37,30,43,Alto,48,-68.763,-11.347
332,Pando,Madre De Dios,Agua Dulce,90301,32,70,22,62,18,72,0,89,18,52,16,0,13,42,22,32,19,47,Muy Alto,67,-66.167,-11.087
333,Pando,Madre De Dios,Exaltación,90302,26,59,16,54,21,72,9,0,2,6,19,6,9,57,35,42,31,43,Medio,40,-66.979,-11.888
334,Pando,Madre De Dios,Bolívar,90303,29,66,21,62,26,72,0,7,19,21,14,25,11,41,35,37,29,45,Alto,49,-67.246,-11.483
335,Pando,Abuná,Nacebe,90401,25,57,15,62,9,64,0,10,2,33,14,0,19,43,30,36,29,41,Medio,41,-67.448,-10.620
336,Pando,Abuná,Ingavi,90402,30,59,16,65,10,64,0,8,14,12,15,0,17,41,33,35,20,45,Medio,39,-66.449,-10.816
337,Pando,Federico Roman,Nuevo Manoa,90501,22,56,15,62,18,72,0,26,30,1,18,7,18,47,23,33,21,43,Alto,45,-65.339,-10.059
338,Pando,Federico Roman,Villa Nueva,90502,16,40,10,62,4,72,0,49,1,20,15,0,12,46,37,37,22,44,Alto,44,-65.965,-10.788
339,Pando,Federico Roman,Eureka,90503,39,59,16,68,21,53,0,1,9,0,19,0,15,49,34,37,20,44,Bajo,36,-66.212,-10.495
